[{"id":1,"name":"Sauté","address":"251 Av Percival Montreal Ouest QC H4X 1T8","phone":"514 765 - 1089","delivery_areas":["H1T","H2R","G5F","J8P"],"hours":[["09","00","17","00"],["09","00","17","00"],["09","00","17","00"],["09","00","17","00"],["09","00","17","00"],["09","00","21","00"],["09","00","21","00"]],"manager_id":2,"restaurateur_id":3},{"id":2,"name":"Bistro","address":"391 Rue de la Congrégation Montréal QC H3K 2H8(Montreal ,Quebec)","phone":"514 935 - 1002","delivery_areas":["H1T","H2R","H4V"],"hours":[["11","00","22","00"],["11","00","22","00"],["11","00","22","00"],["11","00","22","00"],["11","00","22","00"],["11","00","23","00"],["11","00","23","00"]],"manager_id":9,"restaurateur_id":10},{"id":3,"name":"Silver Bowl","address":"6451 Rome, Brossard, QC","phone":"514 514 - 5141","delivery_areas":["J5V","J2W","J3K","J7H","J1X"],"hours":[["09","00","17","00"],["09","00","17","00"],["09","00","17","00"],["09","00","17","00"],["09","00","17","00"],["09","00","17","00"],["09","00","17","00"]],"manager_id":14,"restaurateur_id":15},{"id":4,"name":"3 Amigoes","address":"1102 st cathrine Qc Montreal ","phone":"514 232 - 8965","delivery_areas":["A1A","h3h","t1t"],"hours":[["11","00","17","00"],["11","00","17","00"],["11","00","17","00"],["11","00","17","00"],["11","00","17","00"],["11","00","21","00"],["11","00","21","00"]],"manager_id":19,"restaurateur_id":20},{"id":5,"name":"Burger King","address":"1000 Street, Montreal","phone":"123 456 - 7890","delivery_areas":["H1T","H3M"],"hours":[["09","00","09","30"],["09","00","09","30"],["09","00","09","30"],["09","00","09","30"],["09","00","09","30"],["09","00","09","30"],["09","00","09","30"]],"manager_id":17,"restaurateur_id":18},{"id":6,"name":"Muse","address":"15 park Av Montreal Qc","phone":"765 433 - 5637","delivery_areas":["H1T","H2R","H3M"],"hours":[["02","00","17","00"],["02","00","17","00"],["02","00","17","00"],["02","00","17","00"],["02","00","17","00"],["02","00","17","00"],["02","00","17","00"]],"manager_id":7,"restaurateur_id":8}]